{"ident":"00A","type":"heliport","name":"Total Rf Heliport","elevation_ft":11,"continent":"NA","iso_region":"US-PA","municipality":"Bensalem","gps_code":"00A","local_code":"00A","coordinates":"40.07080078125, -74.93360137939453"}
{"ident":"00AA","type":"small_airport","name":"Aero B Ranch Airport","elevation_ft":3435,"continent":"NA","iso_region":"US-KS","municipality":"Leoti","gps_code":"00AA","local_code":"00AA","coordinates":"38.704022, -101.473911"}
{"ident":"00AK","type":"small_airport","name":"Lowell Field","elevation_ft":450,"continent":"NA","iso_region":"US-AK","municipality":"Anchor Point","gps_code":"00AK","local_code":"00AK","coordinates":"59.94919968, -151.695999146"}
{"ident":"00AL","type":"small_airport","name":"Epps Airpark","elevation_ft":820,"continent":"NA","iso_region":"US-AL","municipality":"Harvest","gps_code":"00AL","local_code":"00AL","coordinates":"34.86479949951172, -86.77030181884766"}
{"ident":"00AR","type":"closed","name":"Newport Hospital & Clinic Heliport","elevation_ft":237,"continent":"NA","iso_region":"US-AR","municipality":"Newport","coordinates":"35.6087, -91.254898"}
{"ident":"00AS","type":"small_airport","name":"Fulton Airport","elevation_ft":1100,"continent":"NA","iso_region":"US-OK","municipality":"Alex","gps_code":"00AS","local_code":"00AS","coordinates":"34.9428028, -97.8180194"}
{"ident":"00AZ","type":"small_airport","name":"Cordes Airport","elevation_ft":3810,"continent":"NA","iso_region":"US-AZ","municipality":"Cordes","gps_code":"00AZ","local_code":"00AZ","coordinates":"34.305599212646484, -112.16500091552734"}
{"ident":"00CA","type":"small_airport","name":"Goldstone /Gts/ Airport","elevation_ft":3038,"continent":"NA","iso_region":"US-CA","municipality":"Barstow","gps_code":"00CA","local_code":"00CA","coordinates":"35.350498199499995, -116.888000488"}
{"ident":"00CL","type":"small_airport","name":"Williams Ag Airport","elevation_ft":87,"continent":"NA","iso_region":"US-CA","municipality":"Biggs","gps_code":"00CL","local_code":"00CL","coordinates":"39.427188, -121.763427"}
{"ident":"00CN","type":"heliport","name":"Kitchen Creek Helibase Heliport","elevation_ft":3350,"continent":"NA","iso_region":"US-CA","municipality":"Pine Valley","gps_code":"00CN","local_code":"00CN","coordinates":"32.7273736, -116.4597417"}
